{
  "persons": [
    {
      "name": "鲁迅",
      "style": {
        "markerColor": "#3B82F6",
        "lineColor": "#93C5FD"
      },
      "events": [
        {
          "year": 1881,
          "age": 0,
          "place": "绍兴",
          "lat": 29.995,
          "lon": 120.586,
          "title": "出生",
          "detail": "周树人（鲁迅）出生于浙江绍兴的周家台门。"
        },
        {
          "year": 1902,
          "age": 21,
          "place": "东京",
          "lat": 35.6895,
          "lon": 139.6917,
          "title": "到东京留学",
          "detail": "赴日本弘文学院学习医学，后转文科。"
        },
        {
          "year": 1904,
          "age": 23,
          "place": "仙台",
          "lat": 38.2682,
          "lon": 140.8694,
          "title": "转学仙台医专",
          "detail": "曾在仙台医学专门学校学习，后弃医从文。"
        },
        {
          "year": 1909,
          "age": 28,
          "place": "杭州",
          "lat": 30.2741,
          "lon": 120.1551,
          "title": "任教于浙江两级师范学堂",
          "detail": "回国后在杭州等地任教。"
        },
        {
          "year": 1918,
          "age": 37,
          "place": "北京",
          "lat": 39.9042,
          "lon": 116.4074,
          "title": "发表重要作品",
          "detail": "在北京从事文学活动并发表重要作品。"
        },
        {
          "year": 1927,
          "age": 46,
          "place": "厦门/广州",
          "lat": 24.4798,
          "lon": 118.0895,
          "title": "教学/发表",
          "detail": "在厦门等地从事教学与创作（示例）。"
        },
        {
          "year": 1936,
          "age": 55,
          "place": "上海",
          "lat": 31.2304,
          "lon": 121.4737,
          "title": "逝世",
          "detail": "1936年逝世于上海。"
        }
      ]
    },
    {
      "name": "毛泽东",
      "style": {
        "markerColor": "#EF4444",
        "lineColor": "#FCA5A5"
      },
      "events": [
        {
          "year": 1893,
          "age": 0,
          "place": "湘潭·韶山",
          "lat": 27.922,
          "lon": 112.528,
          "title": "出生",
          "detail": "出生于湖南省湘潭县韶山冲。"
        },
        {
          "year": 1902,
          "age": 9,
          "place": "湘潭·韶山",
          "lat": 27.922,
          "lon": 112.528,
          "title": "启蒙教育",
          "detail": "在韶山南岸私塾开始接受传统启蒙教育。"
        },
        {
          "year": 1911,
          "age": 18,
          "place": "长沙",
          "lat": 28.228,
          "lon": 112.938,
          "title": "投身革命",
          "detail": "受辛亥革命影响，在长沙加入湖南新军。"
        },
        {
          "year": 1913,
          "age": 20,
          "place": "长沙",
          "lat": 28.228,
          "lon": 112.938,
          "title": "求学",
          "detail": "考入湖南省立第四师范学校（后并入第一师范）。"
        },
        {
          "year": 1918,
          "age": 25,
          "place": "北京",
          "lat": 39.904,
          "lon": 116.407,
          "title": "北上与早期活动",
          "detail": "组织湖南青年赴法勤工俭学，首次到北京，在北京大学图书馆工作，接触马克思主义。"
        },
        {
          "year": 1921,
          "age": 28,
          "place": "上海",
          "lat": 31.23,
          "lon": 121.473,
          "title": "参与建党",
          "detail": "出席中国共产党第一次全国代表大会，成为党的创始人之一。"
        },
        {
          "year": 1927,
          "age": 34,
          "place": "武汉",
          "lat": 30.593,
          "lon": 114.305,
          "title": "考察农民运动",
          "detail": "在武汉撰写并发表《湖南农民运动考察报告》。"
        },
        {
          "year": 1927,
          "age": 34,
          "place": "江西·井冈山",
          "lat": 26.573,
          "lon": 114.164,
          "title": "秋收起义与井冈山",
          "detail": "领导湘赣边界秋收起义，随后率部上井冈山，创建第一个农村革命根据地。"
        },
        {
          "year": 1931,
          "age": 38,
          "place": "江西·瑞金",
          "lat": 25.885,
          "lon": 116.0,
          "title": "中华苏维埃",
          "detail": "在江西瑞金当选为中华苏维埃共和国临时中央政府主席。"
        },
        {
          "year": 1934,
          "age": 41,
          "place": "江西·于都",
          "lat": 25.955,
          "lon": 115.415,
          "title": "长征开始",
          "detail": "随中央红军主力从于都等地出发，开始长征。"
        },
        {
          "year": 1935,
          "age": 42,
          "place": "贵州·遵义",
          "lat": 27.705,
          "lon": 106.937,
          "title": "遵义会议",
          "detail": "在遵义会议上确立了在红军和党中央的领导地位。"
        },
        {
          "year": 1936,
          "age": 43,
          "place": "陕西·延安",
          "lat": 36.598,
          "lon": 109.487,
          "title": "抵达陕北",
          "detail": "率领中央红军长征到达陕北，此后延安成为革命指挥中心。"
        },
        {
          "year": 1945,
          "age": 52,
          "place": "陕西·延安",
          "lat": 36.598,
          "lon": 109.487,
          "title": "中共七大",
          "detail": "在延安主持召开中国共产党第七次全国代表大会，毛泽东思想被确立为党的指导思想。"
        },
        {
          "year": 1949,
          "age": 56,
          "place": "北京",
          "lat": 39.904,
          "lon": 116.407,
          "title": "宣告新中国成立",
          "detail": "在天安门城楼上向全世界庄严宣告中华人民共和国成立。"
        },
        {
          "year": 1950,
          "age": 57,
          "place": "北京",
          "lat": 39.904,
          "lon": 116.407,
          "title": "决策抗美援朝",
          "detail": "主持中共中央决策，派遣中国人民志愿军入朝参战。"
        },
        {
          "year": 1958,
          "age": 65,
          "place": "北京",
          "lat": 39.904,
          "lon": 116.407,
          "title": "发动大跃进",
          "detail": "发动“大跃进”运动和人民公社化运动。"
        },
        {
          "year": 1966,
          "age": 73,
          "place": "北京",
          "lat": 39.904,
          "lon": 116.407,
          "title": "发动文化大革命",
          "detail": "发动“无产阶级文化大革命”。"
        },
        {
          "year": 1972,
          "age": 79,
          "place": "北京",
          "lat": 39.904,
          "lon": 116.407,
          "title": "会见尼克松",
          "detail": "在北京会见美国总统理查德·尼克松，打开中美关系正常化大门。"
        },
        {
          "year": 1976,
          "age": 83,
          "place": "北京",
          "lat": 39.904,
          "lon": 116.407,
          "title": "逝世",
          "detail": "1976年9月9日0时10分在北京逝世。"
        }
      ]
    },
    {
      "name": "列宁",
      "style": {
        "markerColor": "#14B8A6",
        "lineColor": "#99F6E4"
      },
      "events": [
        {
          "year": 1870,
          "age": 0,
          "place": "辛比尔斯克（今乌里扬诺夫斯克）",
          "lat": 54.319,
          "lon": 48.377,
          "title": "出生",
          "detail": "出生于俄罗斯辛比尔斯克。"
        },
        {
          "year": 1895,
          "age": 25,
          "place": "圣彼得堡",
          "lat": 59.934,
          "lon": 30.335,
          "title": "参与革命活动",
          "detail": "参与工人运动与革命活动。"
        },
        {
          "year": 1897,
          "age": 27,
          "place": "舒申斯科耶（西伯利亚）",
          "lat": 53.33,
          "lon": 92.62,
          "title": "流放西伯利亚",
          "detail": "被流放至西伯利亚舒申斯科耶。"
        },
        {
          "year": 1900,
          "age": 30,
          "place": "慕尼黑",
          "lat": 48.135,
          "lon": 11.582,
          "title": "流亡欧洲",
          "detail": "在慕尼黑进行出版与组织工作。"
        },
        {
          "year": 1902,
          "age": 32,
          "place": "伦敦",
          "lat": 51.507,
          "lon": -0.128,
          "title": "在伦敦活动",
          "detail": "继续组织与宣传活动。"
        },
        {
          "year": 1903,
          "age": 33,
          "place": "日内瓦",
          "lat": 46.204,
          "lon": 6.143,
          "title": "日内瓦时期",
          "detail": "在瑞士参与出版与会议。"
        },
        {
          "year": 1905,
          "age": 35,
          "place": "圣彼得堡",
          "lat": 59.934,
          "lon": 30.335,
          "title": "革命活动加剧",
          "detail": "返回俄国参与活动。"
        },
        {
          "year": 1917,
          "age": 47,
          "place": "彼得格勒（圣彼得堡）",
          "lat": 59.934,
          "lon": 30.335,
          "title": "十月革命",
          "detail": "在彼得格勒领导十月革命。"
        },
        {
          "year": 1918,
          "age": 48,
          "place": "莫斯科",
          "lat": 55.7558,
          "lon": 37.6173,
          "title": "迁至莫斯科",
          "detail": "政府迁至莫斯科。"
        },
        {
          "year": 1923,
          "age": 53,
          "place": "戈尔基·列宁近郊",
          "lat": 55.568,
          "lon": 37.738,
          "title": "疗养",
          "detail": "在莫斯科近郊戈尔基疗养。"
        },
        {
          "year": 1924,
          "age": 54,
          "place": "戈尔基·列宁近郊",
          "lat": 55.568,
          "lon": 37.738,
          "title": "逝世",
          "detail": "在戈尔基逝世。"
        }
      ]
    },
    {
      "name": "老子",
      "style": {
        "markerColor": "#22C55E",
        "lineColor": "#86EFAC"
      },
      "events": [
        {
          "year": "约前571",
          "age": "0",
          "place": "楚·苦县（今河南鹿邑）",
          "lat": 33.86,
          "lon": 115.486,
          "title": "传说出生",
          "detail": "传为出生于楚国苦县厉乡（今河南鹿邑）。"
        },
        {
          "year": "约前520",
          "age": "约51",
          "place": "洛阳",
          "lat": 34.619,
          "lon": 112.454,
          "title": "周守藏室史",
          "detail": "据传在周王室担任史官，整理典籍。"
        },
        {
          "year": "约前515",
          "age": "约56",
          "place": "函谷关（灵宝）",
          "lat": 34.555,
          "lon": 110.889,
          "title": "出关著书",
          "detail": "在函谷关写下《道德经》，后西去（传说）。"
        },
        {
          "year": "约前500",
          "age": "约71",
          "place": "关中·长安（今西安）",
          "lat": 34.265,
          "lon": 108.954,
          "title": "西行传道",
          "detail": "传至关中传播思想（传说）。"
        },
        {
          "year": "约前480",
          "age": "约91",
          "place": "河南鹿邑·太清宫",
          "lat": 33.843,
          "lon": 115.574,
          "title": "晚年传说",
          "detail": "太清宫为后世纪念之地（传说）。"
        }
      ]
    },
    {
      "name": "毛晓彤",
      "style": {
        "markerColor": "#E91E63",
        "lineColor": "#F06292"
      },
      "events": [
        {
          "year": 1988,
          "age": 0,
          "place": "天津",
          "lat": 39.084,
          "lon": 117.2,
          "title": "出生",
          "detail": "出生于天津市。"
        },
        {
          "year": 2007,
          "age": 19,
          "place": "北京",
          "lat": 39.904,
          "lon": 116.407,
          "title": "进入中央戏剧学院",
          "detail": "考入中央戏剧学院表演系就读。"
        },
        {
          "year": 2011,
          "age": 23,
          "place": "浙江·横店",
          "lat": 29.156,
          "lon": 120.236,
          "title": "参与古装剧拍摄",
          "detail": "在横店影视城参与古装剧拍摄。"
        },
        {
          "year": 2012,
          "age": 24,
          "place": "北京",
          "lat": 39.904,
          "lon": 116.407,
          "title": "《甄嬛传》播出",
          "detail": "随着《甄嬛传》播出获得关注。"
        },
        {
          "year": 2016,
          "age": 28,
          "place": "上海",
          "lat": 31.23,
          "lon": 121.473,
          "title": "人气提升",
          "detail": "出演都市/古装剧，知名度进一步提升。"
        },
        {
          "year": 2020,
          "age": 32,
          "place": "上海",
          "lat": 31.23,
          "lon": 121.473,
          "title": "《三十而已》",
          "detail": "饰演钟晓芹，收获广泛讨论与好评。"
        }
      ]
    },
    {
      "name": "钟本强",
      "style": {
        "markerColor": "#e91e63",
        "lineColor": "#f06292"
      },
      "events": [
        {
          "year": 1950,
          "age": 0,
          "place": "湖南省郴州市",
          "lat": 25.77063,
          "lon": 113.01485,
          "title": "出生",
          "detail": "钟本强出生于湖南省郴州市，开始其人生历程。"
        },
        {
          "year": 1968,
          "age": 18,
          "place": "湖南省郴州市",
          "lat": 25.77063,
          "lon": 113.01485,
          "title": "参加工作",
          "detail": "钟本强在郴州地区开始工作，早期可能从事基层或地方事务。"
        },
        {
          "year": 1971,
          "age": 21,
          "place": "湖南省郴州市",
          "lat": 25.77063,
          "lon": 113.01485,
          "title": "加入中国共产党",
          "detail": "钟本强正式加入中国共产党，开启政治生涯。"
        },
        {
          "year": 1980,
          "age": 30,
          "place": "湖南省郴州市",
          "lat": 25.77063,
          "lon": 113.01485,
          "title": "担任地方职务",
          "detail": "钟本强在郴州地区担任多个地方职务，逐步积累政治经验，可能涉及经济或行政管理工作。"
        },
        {
          "year": 1995,
          "age": 45,
          "place": "湖南省郴州市",
          "lat": 25.77063,
          "lon": 113.01485,
          "title": "晋升市级领导",
          "detail": "钟本强晋升为郴州市级领导职务，如副市长或市委常委，负责重要领域工作。"
        },
        {
          "year": 2007,
          "age": 57,
          "place": "湖南省郴州市",
          "lat": 25.77063,
          "lon": 113.01485,
          "title": "担任郴州市政协主席",
          "detail": "钟本强当选为郴州市政协主席，负责政协工作，参与地方政治协商和民主监督。"
        },
        {
          "year": 2012,
          "age": 62,
          "place": "湖南省郴州市",
          "lat": 25.77063,
          "lon": 113.01485,
          "title": "连任政协主席",
          "detail": "钟本强连任郴州市政协主席，继续推动地方政协事业发展。"
        },
        {
          "year": 2017,
          "age": 67,
          "place": "湖南省郴州市",
          "lat": 25.77063,
          "lon": 113.01485,
          "title": "退休",
          "detail": "钟本强从政治职务退休，结束长期的政治生涯，专注于个人生活。"
        }
      ]
    },
    {
      "name": "赵今麦",
      "style": {
        "markerColor": "#e91e63",
        "lineColor": "#f06292"
      },
      "events": [
        {
          "year": 2002,
          "age": 0,
          "place": "沈阳",
          "lat": 41.8057,
          "lon": 123.4315,
          "title": "出生",
          "detail": "赵今麦出生于辽宁省沈阳市"
        },
        {
          "year": 2010,
          "age": 8,
          "place": "沈阳",
          "lat": 41.8057,
          "lon": 123.4315,
          "title": "首次参演电视剧",
          "detail": "在家庭情感剧《不能没有娘》中饰演想弟，正式进入演艺圈"
        },
        {
          "year": 2014,
          "age": 12,
          "place": "北京",
          "lat": 39.9042,
          "lon": 116.4074,
          "title": "参演儿童魔幻喜剧",
          "detail": "在《巴啦啦小魔仙之魔法的考验》中饰演凌美琪，开始受到关注"
        },
        {
          "year": 2016,
          "age": 14,
          "place": "北京",
          "lat": 39.9042,
          "lon": 116.4074,
          "title": "参演都市情感剧",
          "detail": "在《小别离》中饰演金琴琴，演技获得认可"
        },
        {
          "year": 2018,
          "age": 16,
          "place": "北京",
          "lat": 39.9042,
          "lon": 116.4074,
          "title": "主演青春剧",
          "detail": "在《少年派》中饰演林妙妙，人气大幅提升"
        },
        {
          "year": 2019,
          "age": 17,
          "place": "北京",
          "lat": 39.9042,
          "lon": 116.4074,
          "title": "主演科幻电影",
          "detail": "在电影《流浪地球》中饰演韩朵朵，成为中国影史票房最高的女演员之一"
        },
        {
          "year": 2020,
          "age": 18,
          "place": "北京",
          "lat": 39.9042,
          "lon": 116.4074,
          "title": "考入中央戏剧学院",
          "detail": "以专业第一的成绩考入中央戏剧学院表演系"
        },
        {
          "year": 2022,
          "age": 20,
          "place": "北京",
          "lat": 39.9042,
          "lon": 116.4074,
          "title": "主演爆款剧",
          "detail": "在电视剧《开端》中饰演李诗情，获得广泛好评"
        },
        {
          "year": 2023,
          "age": 21,
          "place": "北京",
          "lat": 39.9042,
          "lon": 116.4074,
          "title": "继续演艺事业",
          "detail": "参演多部影视作品，巩固了在演艺圈的地位"
        }
      ]
    },
    {
      "name": "邓涵一",
      "style": {
        "markerColor": "#e91e63",
        "lineColor": "#f06292"
      },
      "events": [
        {
          "year": 2000,
          "age": 0,
          "place": "北京",
          "lat": 39.9042,
          "lon": 116.4074,
          "title": "出生",
          "detail": "邓涵一（小名梧桐妹）在北京出生，是演员贾静雯与孙志浩的女儿。"
        },
        {
          "year": 2005,
          "age": 5,
          "place": "上海",
          "lat": 31.2304,
          "lon": 121.4737,
          "title": "父母离婚",
          "detail": "贾静雯与孙志浩的婚姻出现危机，双方就女儿的抚养权问题产生争执，邓涵一在此期间主要随母亲贾静雯在上海生活。"
        },
        {
          "year": 2010,
          "age": 10,
          "place": "台北",
          "lat": 25.032,
          "lon": 121.5654,
          "title": "抚养权归属",
          "detail": "经过法庭调解，贾静雯与孙志浩达成离婚及抚养权协议，邓涵一由双方共同监护，但主要随母亲贾静雯在台北定居和生活。"
        },
        {
          "year": 2019,
          "age": 19,
          "place": "上海",
          "lat": 31.2304,
          "lon": 121.4737,
          "title": "高中毕业",
          "detail": "邓涵一在上海某国际学校完成高中学业，并举行了毕业典礼，母亲贾静雯和继父修杰楷均到场祝贺。"
        },
        {
          "year": 2023,
          "age": 23,
          "place": "海外",
          "lat": null,
          "lon": null,
          "title": "海外求学",
          "detail": "根据公开信息，邓涵一已完成高中学业并前往海外（具体地点未公开）继续大学或更高层次的教育。"
        }
      ]
    },
    {
      "name": "景甜",
      "style": {
        "markerColor": "#e91e63",
        "lineColor": "#f06292"
      },
      "events": [
        {
          "year": 1988,
          "age": 0,
          "place": "西安",
          "lat": 34.3416,
          "lon": 108.9398,
          "title": "出生",
          "detail": "景甜出生于陕西省西安市，童年时期开始学习舞蹈。"
        },
        {
          "year": 2000,
          "age": 12,
          "place": "北京",
          "lat": 39.9042,
          "lon": 116.4074,
          "title": "进入北京舞蹈学院附中",
          "detail": "景甜考入北京舞蹈学院附中学习中国民间舞，为演艺事业奠定基础。"
        },
        {
          "year": 2006,
          "age": 18,
          "place": "北京",
          "lat": 39.9042,
          "lon": 116.4074,
          "title": "考入北京电影学院",
          "detail": "景甜进入北京电影学院表演系本科班学习，正式开启演艺生涯。"
        },
        {
          "year": 2008,
          "age": 20,
          "place": "北京",
          "lat": 39.9042,
          "lon": 116.4074,
          "title": "首部影视作品",
          "detail": "景甜出演个人首部电视剧《一个女人的史诗》，与赵薇、刘烨合作。"
        },
        {
          "year": 2011,
          "age": 23,
          "place": "北京",
          "lat": 39.9042,
          "lon": 116.4074,
          "title": "电影《战国》上映",
          "detail": "景甜主演古装战争片《战国》，饰演田夕，开始获得广泛关注。"
        },
        {
          "year": 2013,
          "age": 25,
          "place": "洛杉矶",
          "lat": 34.0522,
          "lon": -118.2437,
          "title": "进军好莱坞",
          "detail": "景甜与成龙合作出演动作片《警察故事2013》，并在好莱坞电影《金刚：骷髅岛》中担任角色。"
        },
        {
          "year": 2016,
          "age": 28,
          "place": "洛杉矶",
          "lat": 34.0522,
          "lon": -118.2437,
          "title": "参演《长城》",
          "detail": "景甜在张艺谋执导的好莱坞大片《长城》中饰演林梅将军，进一步扩大国际影响力。"
        },
        {
          "year": 2021,
          "age": 33,
          "place": "中国大陆",
          "lat": 35.0,
          "lon": 105.0,
          "title": "电视剧《司藤》热播",
          "detail": "景甜主演的奇幻剧《司藤》播出，凭借出色表演赢得观众广泛好评，人气大幅提升。"
        },
        {
          "year": 2023,
          "age": 35,
          "place": "中国大陆",
          "lat": 35.0,
          "lon": 105.0,
          "title": "持续活跃演艺圈",
          "detail": "景甜继续参与多部影视作品和综艺节目，保持较高的公众曝光度。"
        }
      ]
    },
    {
      "name": "窦唯",
      "style": {
        "markerColor": "#e91e63",
        "lineColor": "#f06292"
      },
      "events": [
        {
          "year": 1969,
          "age": 0,
          "place": "北京",
          "lat": 39.9042,
          "lon": 116.4074,
          "title": "出生",
          "detail": "窦唯出生于北京，是中国摇滚乐的重要代表人物之一。"
        },
        {
          "year": 1985,
          "age": 16,
          "place": "北京",
          "lat": 39.9042,
          "lon": 116.4074,
          "title": "接触音乐",
          "detail": "窦唯进入职高学习精神病护理，并开始接触吉他和其他乐器，对音乐产生浓厚兴趣。"
        },
        {
          "year": 1988,
          "age": 19,
          "place": "北京",
          "lat": 39.9042,
          "lon": 116.4074,
          "title": "加入黑豹乐队",
          "detail": "窦唯加入黑豹乐队，担任主唱，并参与创作多首经典歌曲，如《无地自容》。"
        },
        {
          "year": 1991,
          "age": 22,
          "place": "北京",
          "lat": 39.9042,
          "lon": 116.4074,
          "title": "离开黑豹乐队",
          "detail": "窦唯因个人原因离开黑豹乐队，开始个人音乐生涯，并组建做梦乐队。"
        },
        {
          "year": 1994,
          "age": 25,
          "place": "香港",
          "lat": 22.3193,
          "lon": 114.1694,
          "title": "发行《黑梦》专辑",
          "detail": "窦唯发行首张个人专辑《黑梦》，获得广泛好评，奠定了他在中国摇滚乐坛的地位。"
        },
        {
          "year": 1996,
          "age": 27,
          "place": "北京",
          "lat": 39.9042,
          "lon": 116.4074,
          "title": "与王菲结婚",
          "detail": "窦唯与歌手王菲结婚，这段婚姻备受媒体关注，但于1999年结束。"
        },
        {
          "year": 1999,
          "age": 30,
          "place": "北京",
          "lat": 39.9042,
          "lon": 116.4074,
          "title": "组建译乐队",
          "detail": "窦唯组建译乐队，探索更实验性的音乐风格，发行专辑《幻听》。"
        },
        {
          "year": 2006,
          "age": 37,
          "place": "北京",
          "lat": 39.9042,
          "lon": 116.4074,
          "title": "发行《雨吁》专辑",
          "detail": "窦唯发行专辑《雨吁》，进一步展现其音乐创作的多样性和实验性。"
        },
        {
          "year": 2017,
          "age": 48,
          "place": "北京",
          "lat": 39.9042,
          "lon": 116.4074,
          "title": "持续音乐创作",
          "detail": "窦唯持续进行音乐创作和演出，虽较少公开露面，但仍在音乐界保持影响力。"
        },
        {
          "year": 2023,
          "age": 54,
          "place": "北京",
          "lat": 39.9042,
          "lon": 116.4074,
          "title": "活跃于音乐界",
          "detail": "窦唯继续从事音乐创作，发行多张实验性专辑，并参与小型演出，保持低调的生活方式。"
        }
      ]
    },
    {
      "name": "黄小俊",
      "style": {
        "markerColor": "#e91e63",
        "lineColor": "#f06292"
      },
      "events": [
        {
          "year": 1980,
          "age": 0,
          "place": "北京",
          "lat": 39.9042,
          "lon": 116.4074,
          "title": "出生",
          "detail": "黄小俊出生于北京，一个普通的知识分子家庭。"
        },
        {
          "year": 1998,
          "age": 18,
          "place": "北京",
          "lat": 39.9042,
          "lon": 116.4074,
          "title": "高中毕业",
          "detail": "毕业于北京市第四中学，成绩优异，获得多项学术奖项。"
        },
        {
          "year": 2002,
          "age": 22,
          "place": "上海",
          "lat": 31.2304,
          "lon": 121.4737,
          "title": "大学毕业",
          "detail": "毕业于复旦大学计算机科学专业，获得学士学位，并开始对人工智能产生兴趣。"
        },
        {
          "year": 2005,
          "age": 25,
          "place": "深圳",
          "lat": 22.3193,
          "lon": 114.1694,
          "title": "职业起步",
          "detail": "加入华为技术有限公司，担任软件工程师，参与多个通信项目开发。"
        },
        {
          "year": 2010,
          "age": 30,
          "place": "杭州",
          "lat": 30.2741,
          "lon": 120.1551,
          "title": "创业",
          "detail": "在杭州创立了一家专注于人工智能应用的初创公司，致力于智能家居技术的研发。"
        },
        {
          "year": 2015,
          "age": 35,
          "place": "硅谷",
          "lat": 37.7749,
          "lon": -122.4194,
          "title": "国际拓展",
          "detail": "公司业务扩展至美国硅谷，与多家科技企业合作，推动产品全球化。"
        },
        {
          "year": 2020,
          "age": 40,
          "place": "北京",
          "lat": 39.9042,
          "lon": 116.4074,
          "title": "公益事业",
          "detail": "成立慈善基金会，专注于教育和科技普及，资助贫困地区学生。"
        },
        {
          "year": 2023,
          "age": 43,
          "place": "上海",
          "lat": 31.2304,
          "lon": 121.4737,
          "title": "行业领袖",
          "detail": "受邀在上海市人工智能大会上发表主题演讲，分享行业见解和未来趋势。"
        }
      ]
    },
    {
      "name": "卫青",
      "style": {
        "markerColor": "#e91e63",
        "lineColor": "#f06292"
      },
      "events": [
        {
          "year": "约前158年",
          "age": "出生",
          "place": "平阳",
          "lat": 36.0667,
          "lon": 111.5167,
          "title": "出身卑微",
          "detail": "卫青出生于河东郡平阳县（今山西临汾），为平阳侯府女奴卫媪与县吏郑季的私生子，幼年时被送往生父家牧羊，受尽歧视。"
        },
        {
          "year": "约前139年",
          "age": "约19岁",
          "place": "长安",
          "lat": 34.2667,
          "lon": 108.9,
          "title": "入宫为侍",
          "detail": "因同母异父的姐姐卫子夫受汉武帝宠幸，卫青被召入建章宫当差，后因陈皇后迫害未果，逐渐得到武帝信任。"
        },
        {
          "year": "前129年",
          "age": "约29岁",
          "place": "上谷",
          "lat": 40.65,
          "lon": 115.6833,
          "title": "首次北征",
          "detail": "被封为车骑将军，率万骑出上谷郡抗击匈奴，虽四路大军中唯卫青直捣龙城、斩首七百，因功封关内侯。"
        },
        {
          "year": "前127年",
          "age": "约31岁",
          "place": "河套地区",
          "lat": 40.8,
          "lon": 111.65,
          "title": "收复河套",
          "detail": "率军出云中，西绕至陇西，大败匈奴白羊王、楼烦王，收复河套地区，设朔方郡，受封长平侯。"
        },
        {
          "year": "前124年",
          "age": "约34岁",
          "place": "高阙",
          "lat": 41.3,
          "lon": 109.0,
          "title": "奇袭右贤王",
          "detail": "率三万骑出高阙，夜袭匈奴右贤王，俘匈奴小王十余人、部众万五千，武帝拜其为大将军，三子皆封侯。"
        },
        {
          "year": "前119年",
          "age": "约39岁",
          "place": "漠北",
          "lat": 43.0,
          "lon": 112.0,
          "title": "漠北决战",
          "detail": "与霍去病各率五万骑深入漠北，击溃匈奴单于主力，追击至阗颜山赵信城，匈奴远遁，自此‘漠南无王庭’。"
        },
        {
          "year": "前106年",
          "age": "约52岁",
          "place": "长安",
          "lat": 34.2667,
          "lon": 108.9,
          "title": "病逝长安",
          "detail": "卫青病逝于长安，武帝命葬于茂陵东北，起冢如庐山，谥号‘烈侯’，陪葬茂陵。"
        }
      ]
    },
    {
      "name": "霍去病",
      "style": {
        "markerColor": "#e91e63",
        "lineColor": "#f06292"
      },
      "events": [
        {
          "year": "前140年",
          "age": 0,
          "place": "河东郡平阳县",
          "lat": 36.0667,
          "lon": 111.5167,
          "title": "出生",
          "detail": "霍去病出生于河东郡平阳县（今山西临汾西南），为平阳侯府女奴卫少儿与平阳县小吏霍仲孺的私生子。"
        },
        {
          "year": "前123年",
          "age": 17,
          "place": "漠南",
          "lat": 42.5,
          "lon": 112.5,
          "title": "首次随军出征",
          "detail": "霍去病被汉武帝任命为骠姚校尉，随大将军卫青出击匈奴于漠南。他率八百轻骑奔袭数百里，斩获敌军2028人，功冠全军，封冠军侯。"
        },
        {
          "year": "前121年",
          "age": 19,
          "place": "河西走廊",
          "lat": 39.0,
          "lon": 99.0,
          "title": "河西之战",
          "detail": "霍去病任骠骑将军，发动两次河西战役。春季率一万骑兵出陇西，越过焉支山千余里，歼敌近九千人；夏季再度出击，深入祁连山，俘获匈奴贵族多人，歼敌三万余人。"
        },
        {
          "year": "前119年",
          "age": 21,
          "place": "漠北",
          "lat": 45.0,
          "lon": 110.0,
          "title": "漠北之战",
          "detail": "霍去病与卫青各率五万骑兵深入漠北，寻歼匈奴主力。他率军北进两千余里，大败左贤王部，歼敌七万余人，封狼居胥山，举行祭天仪式。"
        },
        {
          "year": "前117年",
          "age": 23,
          "place": "长安",
          "lat": 34.2667,
          "lon": 108.9,
          "title": "病逝",
          "detail": "霍去病在长安（今陕西西安）病逝，年仅二十三岁。汉武帝悲痛不已，调遣边境五郡的铁甲军，从长安到茂陵列成阵，为其修建形似祁连山的坟墓，谥号“景桓侯”。"
        }
      ]
    }
  ]
}