{
  "persons": [
    {
      "name": "鲁迅",
      "style": { "markerColor": "#3B82F6", "lineColor": "#93C5FD" },
      "events": [
        { "year": 1881, "age": 0, "place": "绍兴", "lat": 29.995, "lon": 120.586, "title": "出生", "detail": "周树人（鲁迅）出生于浙江绍兴的周家台门。" },
        { "year": 1902, "age": 21, "place": "东京", "lat": 35.6895, "lon": 139.6917, "title": "到东京留学", "detail": "赴日本弘文学院学习医学，后转文科。" },
        { "year": 1904, "age": 23, "place": "仙台", "lat": 38.2682, "lon": 140.8694, "title": "转学仙台医专", "detail": "曾在仙台医学专门学校学习，后弃医从文。" },
        { "year": 1909, "age": 28, "place": "杭州", "lat": 30.2741, "lon": 120.1551, "title": "任教于浙江两级师范学堂", "detail": "回国后在杭州等地任教。" },
        { "year": 1918, "age": 37, "place": "北京", "lat": 39.9042, "lon": 116.4074, "title": "发表重要作品", "detail": "在北京从事文学活动并发表重要作品。" },
        { "year": 1927, "age": 46, "place": "厦门/广州", "lat": 24.4798, "lon": 118.0895, "title": "教学/发表", "detail": "在厦门等地从事教学与创作（示例）。" },
        { "year": 1936, "age": 55, "place": "上海", "lat": 31.2304, "lon": 121.4737, "title": "逝世", "detail": "1936年逝世于上海。" }
      ]
    },
    {
      "name": "毛泽东",
      "style": { "markerColor": "#EF4444", "lineColor": "#FCA5A5" },
      "events": [
        { "year": 1893, "age": 0, "place": "湘潭·韶山", "lat": 27.922, "lon": 112.528, "title": "出生", "detail": "出生于湖南省湘潭县韶山冲。" },
        { "year": 1902, "age": 9, "place": "湘潭·韶山", "lat": 27.922, "lon": 112.528, "title": "启蒙教育", "detail": "在韶山南岸私塾开始接受传统启蒙教育。" },
        { "year": 1911, "age": 18, "place": "长沙", "lat": 28.228, "lon": 112.938, "title": "投身革命", "detail": "受辛亥革命影响，在长沙加入湖南新军。" },
        { "year": 1913, "age": 20, "place": "长沙", "lat": 28.228, "lon": 112.938, "title": "求学", "detail": "考入湖南省立第四师范学校（后并入第一师范）。" },
        { "year": 1918, "age": 25, "place": "北京", "lat": 39.904, "lon": 116.407, "title": "北上与早期活动", "detail": "组织湖南青年赴法勤工俭学，首次到北京，在北京大学图书馆工作，接触马克思主义。" },
        { "year": 1921, "age": 28, "place": "上海", "lat": 31.230, "lon": 121.473, "title": "参与建党", "detail": "出席中国共产党第一次全国代表大会，成为党的创始人之一。" },
        { "year": 1927, "age": 34, "place": "武汉", "lat": 30.593, "lon": 114.305, "title": "考察农民运动", "detail": "在武汉撰写并发表《湖南农民运动考察报告》。" },
        { "year": 1927, "age": 34, "place": "江西·井冈山", "lat": 26.573, "lon": 114.164, "title": "秋收起义与井冈山", "detail": "领导湘赣边界秋收起义，随后率部上井冈山，创建第一个农村革命根据地。" },
        { "year": 1931, "age": 38, "place": "江西·瑞金", "lat": 25.885, "lon": 116.000, "title": "中华苏维埃", "detail": "在江西瑞金当选为中华苏维埃共和国临时中央政府主席。" },
        { "year": 1934, "age": 41, "place": "江西·于都", "lat": 25.955, "lon": 115.415, "title": "长征开始", "detail": "随中央红军主力从于都等地出发，开始长征。" },
        { "year": 1935, "age": 42, "place": "贵州·遵义", "lat": 27.705, "lon": 106.937, "title": "遵义会议", "detail": "在遵义会议上确立了在红军和党中央的领导地位。" },
        { "year": 1936, "age": 43, "place": "陕西·延安", "lat": 36.598, "lon": 109.487, "title": "抵达陕北", "detail": "率领中央红军长征到达陕北，此后延安成为革命指挥中心。" },
        { "year": 1945, "age": 52, "place": "陕西·延安", "lat": 36.598, "lon": 109.487, "title": "中共七大", "detail": "在延安主持召开中国共产党第七次全国代表大会，毛泽东思想被确立为党的指导思想。" },
        { "year": 1949, "age": 56, "place": "北京", "lat": 39.904, "lon": 116.407, "title": "宣告新中国成立", "detail": "在天安门城楼上向全世界庄严宣告中华人民共和国成立。" },
        { "year": 1950, "age": 57, "place": "北京", "lat": 39.904, "lon": 116.407, "title": "决策抗美援朝", "detail": "主持中共中央决策，派遣中国人民志愿军入朝参战。" },
        { "year": 1958, "age": 65, "place": "北京", "lat": 39.904, "lon": 116.407, "title": "发动大跃进", "detail": "发动“大跃进”运动和人民公社化运动。" },
        { "year": 1966, "age": 73, "place": "北京", "lat": 39.904, "lon": 116.407, "title": "发动文化大革命", "detail": "发动“无产阶级文化大革命”。" },
        { "year": 1972, "age": 79, "place": "北京", "lat": 39.904, "lon": 116.407, "title": "会见尼克松", "detail": "在北京会见美国总统理查德·尼克松，打开中美关系正常化大门。" },
        { "year": 1976, "age": 83, "place": "北京", "lat": 39.904, "lon": 116.407, "title": "逝世", "detail": "1976年9月9日0时10分在北京逝世。" }
      ]
    },
    {
      "name": "列宁",
      "style": { "markerColor": "#14B8A6", "lineColor": "#99F6E4" },
      "events": [
        { "year": 1870, "age": 0, "place": "辛比尔斯克（今乌里扬诺夫斯克）", "lat": 54.319, "lon": 48.377, "title": "出生", "detail": "出生于俄罗斯辛比尔斯克。" },
        { "year": 1895, "age": 25, "place": "圣彼得堡", "lat": 59.934, "lon": 30.335, "title": "参与革命活动", "detail": "参与工人运动与革命活动。" },
        { "year": 1897, "age": 27, "place": "舒申斯科耶（西伯利亚）", "lat": 53.330, "lon": 92.620, "title": "流放西伯利亚", "detail": "被流放至西伯利亚舒申斯科耶。" },
        { "year": 1900, "age": 30, "place": "慕尼黑", "lat": 48.135, "lon": 11.582, "title": "流亡欧洲", "detail": "在慕尼黑进行出版与组织工作。" },
        { "year": 1902, "age": 32, "place": "伦敦", "lat": 51.507, "lon": -0.128, "title": "在伦敦活动", "detail": "继续组织与宣传活动。" },
        { "year": 1903, "age": 33, "place": "日内瓦", "lat": 46.204, "lon": 6.143, "title": "日内瓦时期", "detail": "在瑞士参与出版与会议。" },
        { "year": 1905, "age": 35, "place": "圣彼得堡", "lat": 59.934, "lon": 30.335, "title": "革命活动加剧", "detail": "返回俄国参与活动。" },
        { "year": 1917, "age": 47, "place": "彼得格勒（圣彼得堡）", "lat": 59.934, "lon": 30.335, "title": "十月革命", "detail": "在彼得格勒领导十月革命。" },
        { "year": 1918, "age": 48, "place": "莫斯科", "lat": 55.7558, "lon": 37.6173, "title": "迁至莫斯科", "detail": "政府迁至莫斯科。" },
        { "year": 1923, "age": 53, "place": "戈尔基·列宁近郊", "lat": 55.568, "lon": 37.738, "title": "疗养", "detail": "在莫斯科近郊戈尔基疗养。" },
        { "year": 1924, "age": 54, "place": "戈尔基·列宁近郊", "lat": 55.568, "lon": 37.738, "title": "逝世", "detail": "在戈尔基逝世。" }
      ]
    },
    {
      "name": "老子",
      "style": { "markerColor": "#22C55E", "lineColor": "#86EFAC" },
      "events": [
        { "year": "约前571", "age": "0", "place": "楚·苦县（今河南鹿邑）", "lat": 33.860, "lon": 115.486, "title": "传说出生", "detail": "传为出生于楚国苦县厉乡（今河南鹿邑）。" },
        { "year": "约前520", "age": "约51", "place": "洛阳", "lat": 34.619, "lon": 112.454, "title": "周守藏室史", "detail": "据传在周王室担任史官，整理典籍。" },
        { "year": "约前515", "age": "约56", "place": "函谷关（灵宝）", "lat": 34.555, "lon": 110.889, "title": "出关著书", "detail": "在函谷关写下《道德经》，后西去（传说）。" },
        { "year": "约前500", "age": "约71", "place": "关中·长安（今西安）", "lat": 34.265, "lon": 108.954, "title": "西行传道", "detail": "传至关中传播思想（传说）。" },
        { "year": "约前480", "age": "约91", "place": "河南鹿邑·太清宫", "lat": 33.843, "lon": 115.574, "title": "晚年传说", "detail": "太清宫为后世纪念之地（传说）。" }
      ]
    },
    {
      "name": "毛晓彤",
      "style": { "markerColor": "#E91E63", "lineColor": "#F06292" },
      "events": [
        { "year": 1988, "age": 0, "place": "天津", "lat": 39.084, "lon": 117.200, "title": "出生", "detail": "出生于天津市。" },
        { "year": 2007, "age": 19, "place": "北京", "lat": 39.904, "lon": 116.407, "title": "进入中央戏剧学院", "detail": "考入中央戏剧学院表演系就读。" },
        { "year": 2011, "age": 23, "place": "浙江·横店", "lat": 29.156, "lon": 120.236, "title": "参与古装剧拍摄", "detail": "在横店影视城参与古装剧拍摄。" },
        { "year": 2012, "age": 24, "place": "北京", "lat": 39.904, "lon": 116.407, "title": "《甄嬛传》播出", "detail": "随着《甄嬛传》播出获得关注。" },
        { "year": 2016, "age": 28, "place": "上海", "lat": 31.230, "lon": 121.473, "title": "人气提升", "detail": "出演都市/古装剧，知名度进一步提升。" },
        { "year": 2020, "age": 32, "place": "上海", "lat": 31.230, "lon": 121.473, "title": "《三十而已》", "detail": "饰演钟晓芹，收获广泛讨论与好评。" }
      ]
    }
  ]
}